[{"name":"Superior Building","id":"104","abbreviation":"SUP","address":"32 S. College St.","lat":"41.081745","lng":"-81.510277","image_file":"NULL","html":"","related_lots":["30"],"categories":[]},{"name":"The Center for the History of Psychology (Roadway Building)","id":"102","abbreviation":"RDWY","address":"NULL","lat":"41.0805298774","lng":"-81.510977447","image_file":"roadway.jpg","html":"","related_lots":["21"],"categories":[]},{"name":"Honors Residence Hall","id":"97","abbreviation":"HRH","address":"NULL","lat":"41.0776163794","lng":"-81.5114736557","image_file":"honorsComplex.jpg","html":"","related_lots":["26"],"categories":[]},{"name":"Gas Turbine Testing Facility","id":"93","abbreviation":"GTTF","address":"NULL","lat":"41.0756065769","lng":"-81.5176212788","image_file":"NULL","html":"","related_lots":["43"],"categories":[]},{"name":"Fir Hill Plaza","id":"92","abbreviation":"FHP","address":"NULL","lat":"41.0803317393","lng":"-81.5068656206","image_file":"NULL","html":"","related_lots":["11"],"categories":[]},{"name":"Bath Nature Preserve","id":"82","abbreviation":"BNP","address":"NULL","lat":"41.180979579572465","lng":"-81.6500473022461","image_file":"NULL","html":"","related_lots":[],"categories":[]},{"name":"InfoCision Stadium Summa Field","id":"187","abbreviation":"SFIS","address":"427 Nash St Akron, OH 44304","lat":"41.0723379218","lng":"-81.5079966188","image_file":"summaFieldInfoCision.jpg","html":"","related_lots":["36"],"categories":[]},{"name":"Parking Deck North","id":"76","abbreviation":"PDN","address":"255 East Buchtel Avenue","lat":"41.0782067725","lng":"-81.5122407675","image_file":"parkingServs.jpg","html":"","related_lots":["26"],"categories":[]},{"name":"Polymer Engineering Academic Center","id":"69","abbreviation":"PEAC","address":null,"lat":"41.07942393599085","lng":"-81.51364088063315","image_file":"peac.jpg","html":"","related_lots":["45"],"categories":[]},{"name":"Folk Hall","id":"62","abbreviation":"FOLK","address":"150 East Exchange","lat":"41.0735967129","lng":"-81.5176910162","image_file":"folk.jpg","html":"","related_lots":["47"],"categories":[]},{"name":"Schrank Hall (North)","id":"60","abbreviation":"SHN","address":"240 Carroll Street","lat":"41.0750808639","lng":"-81.5137588978","image_file":"schrankNo.jpg","html":"","related_lots":["37"],"categories":[]},{"name":"Schrank Hall (South)","id":"59","abbreviation":"SHS","address":"240 Carroll Street","lat":"41.0745591907","lng":"-81.5138018131","image_file":"schrankSo.jpg","html":"","related_lots":["38"],"categories":[]},{"name":"Electric Substation","id":"58","abbreviation":"ESUB","address":"","lat":"41.0749878527","lng":"-81.5164196491","image_file":"","html":"","related_lots":["41"],"categories":[]},{"name":"Express Building (PFOC)","id":"57","abbreviation":"EB","address":"","lat":"41.0766579903","lng":"-81.5172296762","image_file":"","html":"","related_lots":["43"],"categories":[]},{"name":"Buckingham Building","id":"56","abbreviation":"BCCE","address":"220 Wolf Ledges Pkwy.","lat":"41.0772079537","lng":"-81.5165671706","image_file":"buckingham.jpg","html":"","related_lots":["43"],"categories":[]},{"name":"South Residence Hall","id":"200","abbreviation":"SH","address":null,"lat":"41.073163997766315","lng":"-81.51541113856729","image_file":"south-hall-400px.jpg","html":"","related_lots":["36"],"categories":[]},{"name":"Business Administration Building","id":"53","abbreviation":"CBA","address":"259 South Broadway St.","lat":"41.0776628832","lng":"-81.517688334","image_file":"cba-building-400px.jpg","html":"","related_lots":["49"],"categories":[]},{"name":"Polsky Building","id":"52","abbreviation":"POL","address":"255 South Main Street","lat":"41.0785707108","lng":"-81.5193647146","image_file":"polsky.jpg","html":"","related_lots":["49"],"categories":[]},{"name":"Administrative Services Building","id":"51","abbreviation":"ASB","address":"185 East Mill Street","lat":"41.0812031378","lng":"-81.5110445023","image_file":"admin-services-bldg_small.jpg","html":"","related_lots":["71"],"categories":[]},{"name":"Akron Polymer Training Center","id":"50","abbreviation":"APTC","address":"Mill St.","lat":"41.0806896004","lng":"-81.5112483501","image_file":"polymerTrCtr.jpg","html":"","related_lots":["40"],"categories":[]},{"name":"Lincoln Building","id":"49","abbreviation":"LINC","address":"100 Lincoln Street","lat":"41.0803539793","lng":"-81.5126699209","image_file":"100lincoln.jpg","html":"","related_lots":["45"],"categories":[]},{"name":"Grounds Maintenance Building","id":"47","abbreviation":"GMB","address":"216 South Forge Street","lat":"41.079407761225696","lng":"-81.51203691958443","image_file":"grounds.jpg","html":"","related_lots":["29"],"categories":[]},{"name":"Olson Research Center","id":"46","abbreviation":"OLRC","address":"360 South Forge Street","lat":"41.0798485226","lng":"-81.5141665936","image_file":"olson.jpg","html":"","related_lots":["29"],"categories":[]},{"name":"Forge Street Substation","id":"45","abbreviation":"FSUB","address":"","lat":"41.0794158486","lng":"-81.5142953396","image_file":"","html":"","related_lots":["45"],"categories":[]},{"name":"Physical Facilities Op Center","id":"44","abbreviation":"PFOC","address":"146 Hill Street","lat":"41.078950822","lng":"-81.5141612291","image_file":"physfac.jpg","html":"","related_lots":["27"],"categories":[]},{"name":"E.J. Thomas Performing Arts Hall","id":"43","abbreviation":"PAH","address":"198 Hill Street","lat":"41.0781825099","lng":"-81.5154057741","image_file":"ejthomas.jpg","html":"","related_lots":["28"],"categories":[]},{"name":"Hower House","id":"38","abbreviation":"HOW","address":"60 Fir Hill Street","lat":"41.0796746446","lng":"-81.5075522661","image_file":"hower.jpg","html":"","related_lots":["50"],"categories":[]},{"name":"Ocasek Natatorium","id":"32","abbreviation":"ONAT","address":"402 Carroll Street","lat":"41.0748907974","lng":"-81.5075200796","image_file":"ocasek.jpg","html":"","related_lots":["8"],"categories":[]},{"name":"Student Recreation and Wellness Ctr","id":"31","abbreviation":"SRWC","address":"382 Carroll Street","lat":"41.0748746215","lng":"-81.5090274811","image_file":"recCenter.jpg","html":"","related_lots":["8"],"categories":[]},{"name":"James A. Rhodes Health and PE","id":"30","abbreviation":"JAR","address":"373 Carroll Street","lat":"41.0755540058","lng":"-81.5084856749","image_file":"rhodes.jpg","html":"","related_lots":["2"],"categories":[]},{"name":"Olin Hall","id":"28","abbreviation":"OLIN","address":"381 Buchtel Commons","lat":"41.0768965779","lng":"-81.5090113878","image_file":"olin.jpg","html":"","related_lots":["15"],"categories":[]},{"name":"Kolbe Hall","id":"26","abbreviation":"KO","address":"328 Buchtel Commons","lat":"41.0762333831","lng":"-81.5100306273","image_file":"kolbe.jpg","html":"<p><strong>Closer accessibility parking spaces are available in the <a href=\"https://maps.uakron.edu/map?id=lot2\">Rhodes Arena Circle (Lot 2)</a></strong></p>","related_lots":["1"],"categories":[]},{"name":"Leigh Hall","id":"25","abbreviation":"LH","address":"308 Buchtel Commons","lat":"41.0763142609","lng":"-81.5106207132","image_file":"leigh.jpg","html":"","related_lots":["1"],"categories":[]},{"name":"Buchtel Hall","id":"23","abbreviation":"BH","address":"302 Buchtel Commons","lat":"41.0758734757544","lng":"-81.51115179063606","image_file":"buchtel.jpg","html":"","related_lots":["26"],"categories":[]},{"name":"Zook Hall","id":"22","abbreviation":"ZOOK","address":"276 Buchtel Commons","lat":"41.0764315335","lng":"-81.5115702152","image_file":"zook-hall-2016.jpg","html":"","related_lots":["26"],"categories":[]},{"name":"Louis and Freda Stile Athletic Field House","id":"74","abbreviation":"AFLD","address":"384 Carroll Street","lat":"41.0739040603","lng":"-81.5084266663","image_file":"Field-House.jpg","html":"","related_lots":["10"],"categories":[]},{"name":"Student Union, The Jean Hower Taber","id":"73","abbreviation":"STUN","address":"303 Carroll Street","lat":"41.0754650392","lng":"-81.5127342939","image_file":"studentUnion.jpg","html":"","related_lots":["39"],"categories":[]},{"name":"Crouse Hall","id":"20","abbreviation":"CRH","address":"252 Buchtel Commons","lat":"41.0762495586","lng":"-81.5124392509","image_file":"crouse_02.jpg","html":"","related_lots":["26"],"categories":[]},{"name":"Ayer Hall","id":"19","abbreviation":"AYER","address":"250 Buchtel Commons","lat":"41.0762819098","lng":"-81.5130668879","image_file":"ayer2.jpg","html":"","related_lots":["26"],"categories":[]},{"name":"Bierce Library","id":"18","abbreviation":"LIB","address":"315 Buchtel Commons","lat":"41.0769531918","lng":"-81.5102720261","image_file":"bierce.jpg","html":"","related_lots":["26"],"categories":[]},{"name":"College of Arts and Sciences","id":"70","abbreviation":"CAS","address":"","lat":"41.0777457811","lng":"-81.5107172728","image_file":"arts_sci.jpg","html":"","related_lots":["26"],"categories":[]},{"name":"Honors Complex","id":"72","abbreviation":"HCTR","address":"180 South College Street","lat":"41.0776163794","lng":"-81.5114736557","image_file":"honorsComplx.jpg","html":"","related_lots":["26"],"categories":[]},{"name":"Simmons Hall","id":"17","abbreviation":"SI","address":"277 East Buchtel Avenue","lat":"41.0782876478","lng":"-81.5115755796","image_file":"simmons-hall-400px.jpg","html":"","related_lots":["26"],"categories":[]},{"name":"Orr Residence Hall","id":"16","abbreviation":"ORH","address":"188 South College Street","lat":"41.0775718975","lng":"-81.5120959282","image_file":"orr.jpg","html":"","related_lots":["26"],"categories":[]},{"name":"Ritchie Residence Hall","id":"15","abbreviation":"RRH","address":"269 Buchtel Commons","lat":"41.0768197447","lng":"-81.5117901564","image_file":"ritchie.jpg","html":"","related_lots":["26"],"categories":[]},{"name":"Bulger Residence Hall","id":"14","abbreviation":"BRH","address":"192 South College Street","lat":"41.0771109017","lng":"-81.5124285221","image_file":"bulger.jpg","html":"","related_lots":["26"],"categories":[]},{"name":"Spanton Residence Hall","id":"13","abbreviation":"SRH","address":"190 South College Street","lat":"41.0773818382","lng":"-81.5127289295","image_file":"spanton.jpg","html":"","related_lots":["26"],"categories":[]},{"name":"Robertson Dining Hall","id":"12","abbreviation":"RD","address":"248 East Buchtel Avenue","lat":"41.0776851241","lng":"-81.5126752853","image_file":"robertson.jpg","html":"","related_lots":["26"],"categories":[]},{"name":"Sisler-McFawn Residence Hall","id":"11","abbreviation":"SMRH","address":"211 Buchtel Commons","lat":"41.0770745071","lng":"-81.5129810572","image_file":"sisler.jpg","html":"","related_lots":["26"],"categories":[]},{"name":"Guzzetta Hall","id":"10","abbreviation":"GH","address":"157 East Center Street","lat":"41.0774303641","lng":"-81.5141987801","image_file":"guzzetta.jpg","html":"","related_lots":["27"],"categories":[]},{"name":"Auburn Science and Engineering Ctr.","id":"8","abbreviation":"ASEC","address":"244 Sumner Street","lat":"41.0759583979","lng":"-81.5138205886","image_file":"auburn.gif","html":"","related_lots":["39"],"categories":[]},{"name":"Whitby Hall","id":"7","abbreviation":"WHIT","address":"200 Buchtel Commons","lat":"41.0763627875","lng":"-81.5145903826","image_file":"whitby.jpg","html":"","related_lots":["39"],"categories":[]},{"name":"Goodyear Polymer Center","id":"6","abbreviation":"GDYR","address":"170 University Avenue","lat":"41.0767995254","lng":"-81.5145367384","image_file":"goodyear.jpg","html":"","related_lots":["28"],"categories":[]},{"name":"Mary Gladwin Hall","id":"5","abbreviation":"MGH","address":"209 Carroll Street","lat":"41.0754326877","lng":"-81.5151321888","image_file":"gladwin.jpg","html":"","related_lots":["39"],"categories":[]},{"name":"Knight Chemical Laboratory","id":"4","abbreviation":"KNCL","address":"190 Buchtel Commons","lat":"41.0763506558","lng":"-81.5150785446","image_file":"knight.jpg","html":"","related_lots":["39"],"categories":[]},{"name":"Computer Center","id":"3","abbreviation":"COMP","address":"185 South Carroll Street","lat":"41.0754347097","lng":"-81.5154486895","image_file":"cc.jpg","html":"","related_lots":["34"],"categories":[]},{"name":"West Hall","id":"2","abbreviation":"WEST","address":"225 Wolf Ledges Parkway","lat":"41.0769774549","lng":"-81.5160280466","image_file":"west.jpg","html":"","related_lots":["34"],"categories":[]},{"name":"McDowell Law Center","id":"1","abbreviation":"LAW","address":"150 University Avenue","lat":"41.0773899259","lng":"-81.5158993006","image_file":"mcdowell.jpg","html":"","related_lots":["28"],"categories":[]},{"name":"U/A @ Wadsworth High School","id":"141","abbreviation":"WADS","address":"NULL","lat":"41.023459653187594","lng":"-81.70992493629456","image_file":"NULL","html":"","related_lots":[],"categories":[]},{"name":"Wayne College and Boyer HPE Bldg","id":"147","abbreviation":"UAWC","address":"Wayne College and Boyer HPE Bldg B112","lat":"40.8594603139","lng":"-81.7928266525","image_file":"NULL","html":"","related_lots":[],"categories":[]},{"name":"Exchange St Residence Hall","id":"153","abbreviation":"EXC","address":"180 E. Exchange","lat":"41.0738797961","lng":"-81.5159261227","image_file":"esrh.jpg","html":"","related_lots":["36"],"categories":[]},{"name":"Alpha Gamma Delta","id":"155","abbreviation":"AGD","address":"450 Carroll Street","lat":"41.0751455673","lng":"-81.5059643984","image_file":"NULL","html":"","related_lots":["7"],"categories":[]},{"name":"Phi Kappa Psi","id":"157","abbreviation":"PKP","address":"233 Spicer Street","lat":"41.0747998079","lng":"-81.5058369935","image_file":"NULL","html":"","related_lots":["7"],"categories":[]},{"name":"Kappa Kappa Gamma","id":"159","abbreviation":"KKG","address":"237 Spicer Street","lat":"41.0746218726","lng":"-81.5059053898","image_file":"NULL","html":"","related_lots":["7"],"categories":[]},{"name":"Alpha Phi","id":"599","abbreviation":"AP","address":"478 Orchard Street","lat":"41.074279","lng":"-81.505187","image_file":null,"html":"","related_lots":[],"categories":[]},{"name":"Phi Gamma Delta","id":"163","abbreviation":"PGD","address":"261 Spicer Street","lat":"41.0739222585","lng":"-81.5057189763","image_file":"fiji_house_sm.jpg","html":"","related_lots":["7"],"categories":[]},{"name":"Sigma Alpha Epsilon","id":"165","abbreviation":"SAE","address":"275 Spicer Street","lat":"41.0736300764","lng":"-81.5059188008","image_file":"NULL","html":"","related_lots":["7"],"categories":[]},{"name":"Alpha Delta Pi","id":"167","abbreviation":"ADP","address":"291 Spicer Street","lat":"41.0732883531","lng":"-81.505946964","image_file":"NULL","html":"","related_lots":["7"],"categories":[]},{"name":"Phi Delta Theta","id":"169","abbreviation":"PDT","address":"194 Spicer Street","lat":"41.0758583111","lng":"-81.5064485371","image_file":"NULL","html":"","related_lots":["13"],"categories":[]},{"name":"Delta Gamma","id":"171","abbreviation":"DG","address":"400 E. Butchel Ave","lat":"41.0763274035","lng":"-81.5071552992","image_file":"NULL","html":"","related_lots":["1"],"categories":[]},{"name":"Tau Kappa Epsilon","id":"173","abbreviation":"TKE","address":"464 Carroll Street","lat":"41.075043","lng":"-81.505439","image_file":"NULL","html":"","related_lots":["1"],"categories":[]},{"name":"Lambda Chi Alpha","id":"175","abbreviation":"LCA","address":"94 Fir Hill ","lat":"41.0789134175","lng":"-81.5076541901","image_file":"NULL","html":"","related_lots":["1"],"categories":[]},{"name":"Theta Chi","id":"177","abbreviation":"TC","address":"493 Vine Street","lat":"41.0736492856","lng":"-81.5055567026","image_file":"NULL","html":"","related_lots":["7"],"categories":[]},{"name":"Phi Sigma Kappa","id":"179","abbreviation":"PSK","address":"480 Carroll Street","lat":"41.0749271931","lng":"-81.5050202608","image_file":"NULL","html":"","related_lots":["7"],"categories":[]},{"name":"Phi Kappa Tau","id":"181","abbreviation":"PKT","address":"380 E. Bucthel Ave","lat":"41.0762657342","lng":"-81.5080082417","image_file":"NULL","html":"","related_lots":["4"],"categories":[]},{"name":"Alpha Sigma Phi","id":"603","abbreviation":"ASP","address":"269 Spicer Street","lat":"41.070260992549464","lng":"-81.50710698681061","image_file":null,"html":"<p>Alpha Sigma Phi Fraternity </p>","related_lots":[],"categories":[]},{"name":"Quaker Residence Hall","id":"185","abbreviation":null,"address":"135 South Broadway","lat":"41.0811141789","lng":"-81.5152877569","image_file":"quakerStation.jpg","html":"","related_lots":["70"],"categories":[]},{"name":"Spicer Hall","id":"189","abbreviation":"SPIC","address":"290 Spicer Street","lat":"41.0731639978","lng":"-81.5066671371","image_file":"spicerhall.jpg","html":"","related_lots":["9"],"categories":[]},{"name":"National Polymer Innovation Center","id":"191","abbreviation":"NPIC","address":"240 South Forge Street","lat":"41.0794284515","lng":"-81.5131366253","image_file":"nationalpolymer.jpg","html":"","related_lots":["45"],"categories":[]},{"name":"FirstEnergy Stadium","id":"192","abbreviation":"LJF","address":"267 Brown St","lat":"41.0743882901","lng":"-81.5118438019","image_file":"FirstEnergy-CubCadet.jpg","html":"","related_lots":["36"],"categories":[]},{"name":"Coleman Common","id":"194","abbreviation":"COL","address":"NULL","lat":"41.075565085","lng":"-81.5111410632","image_file":"ColemanCommon.jpg","html":"","related_lots":["38"],"categories":[]},{"name":"Buchtel Field","id":"198","abbreviation":"BF","address":"433 Kling St Akron, OH 44311","lat":"41.069896","lng":"-81.511055","image_file":"NULL","html":"","related_lots":["9"],"categories":[]},{"name":"Chill Ice Cream Co","id":"587","abbreviation":null,"address":"30 N High St Akron oh ","lat":"41.085717092431494","lng":"-81.51539503372953","image_file":null,"html":"","related_lots":[],"categories":[]},{"name":"EuroGyro","id":"286","abbreviation":null,"address":"444 East Exchange Street","lat":"41.070955892852204","lng":"-81.50769710540771","image_file":null,"html":"","related_lots":[],"categories":[]},{"name":"Burger King (East Market)","id":"290","abbreviation":null,"address":"671 East Market Street","lat":"41.07700576181058","lng":"-81.49649620056158","image_file":null,"html":"","related_lots":[],"categories":[]},{"name":"CBA Concourse","id":"302","abbreviation":null,"address":"Business Administration Building","lat":"41.0776628831711","lng":"-81.5176883339882","image_file":null,"html":"","related_lots":[],"categories":[]},{"name":"Trecaso's Mary Coyle - Fine Italian Cuisine & Ice Cream","id":"314","abbreviation":null,"address":"780 W Market St","lat":"41.09595","lng":"-81.54247","image_file":"","html":"","related_lots":[],"categories":[]},{"name":"Chick-fil-A (Howe Ave)","id":"322","abbreviation":null,"address":"420 Howe Avenue","lat":"41.11883445398076","lng":"-81.47981801719663","image_file":null,"html":"","related_lots":[],"categories":[]},{"name":"Pizza Fire Express","id":"579","abbreviation":null,"address":"284 E Exchange Street","lat":"41.07271510331994","lng":"-81.51293545964654","image_file":null,"html":"","related_lots":[],"categories":[]},{"name":"Pizza Fire (Downtown)","id":"583","abbreviation":null,"address":"22 E Exchange St","lat":"41.07607162720261","lng":"-81.52133345607217","image_file":null,"html":"","related_lots":[],"categories":[]},{"name":"Papa John's Pizza","id":"338","abbreviation":null,"address":"701 East Market Street","lat":"41.0763910947","lng":"-81.4952731133","image_file":null,"html":"","related_lots":[],"categories":[]},{"name":"Taco Bell","id":"350","abbreviation":null,"address":"414 East Exchange Street","lat":"41.0709073622","lng":"-81.508834362","image_file":"","html":"","related_lots":[],"categories":[]},{"name":"AAMCO Transmissions & Total Car Care","id":"575","abbreviation":null,"address":"745 E Market St","lat":"41.0755327751276","lng":"-81.49430215362008","image_file":null,"html":"","related_lots":[],"categories":[]},{"name":"Five Guys (Chapel Hill)","id":"362","abbreviation":null,"address":"753 Howe Ave","lat":"41.119516639076345","lng":"-81.4723131005249","image_file":null,"html":"","related_lots":[],"categories":[]},{"name":"Fred's Automotive","id":"567","abbreviation":"Fred's","address":"465 N Main St","lat":"41.098167","lng":"-81.510785","image_file":null,"html":"","related_lots":[],"categories":[]},{"name":"Quaker Station","id":"542","abbreviation":"QS","address":"130 E Mill Street","lat":"41.08101222082708","lng":"-81.51414845767215","image_file":null,"html":"","related_lots":[],"categories":[]},{"name":"Ocasek Natatorium","id":"382","abbreviation":null,"address":"402 Carroll Street","lat":"41.0748907974","lng":"-81.5075200796","image_file":"","html":"","related_lots":[],"categories":[]},{"name":"Dave's Supermarket","id":"571","abbreviation":null,"address":"871 E Exchange St","lat":"41.071336740425934","lng":"-81.49308444907376","image_file":null,"html":"","related_lots":[],"categories":[]},{"name":"Cilantro Thai","id":"394","abbreviation":null,"address":"326 South Main Street","lat":"41.07704392595494","lng":"-81.52201710548775","image_file":null,"html":"","related_lots":[],"categories":[]},{"name":"Campus Book and Supply","id":"591","abbreviation":null,"address":"450 E Exchange St","lat":"41.07101959263639","lng":"-81.50742278895495","image_file":null,"html":"","related_lots":[],"categories":[]},{"name":"Zee's Convenience Store (Exchange St)","id":"595","abbreviation":null,"address":"Exchane St Complex","lat":"41.07377465105618","lng":"-81.51606023314889","image_file":null,"html":"","related_lots":[],"categories":[]},{"name":"CVS #4800 (E. Market)","id":"414","abbreviation":null,"address":"590 East Market Street","lat":"41.07738957596975","lng":"-81.49879777546312","image_file":null,"html":"","related_lots":[],"categories":[]},{"name":"Spaghetti Warehouse","id":"430","abbreviation":null,"address":"510 South Main Street","lat":"41.07359642046275","lng":"-81.52524313012884","image_file":null,"html":"","related_lots":[],"categories":[]},{"name":"Starz Market","id":"434","abbreviation":null,"address":"300 East Exchange Street","lat":"41.0725897359","lng":"-81.5123319626","image_file":"","html":"","related_lots":[],"categories":[]},{"name":"Wendy's (E. Market)","id":"438","abbreviation":null,"address":"623 East Market Street","lat":"41.07753","lng":"-81.497796","image_file":"","html":"","related_lots":[],"categories":[]},{"name":"Subway (East Exchange)","id":"442","abbreviation":null,"address":"484 East Exchange Street","lat":"41.071024644481945","lng":"-81.50632381434423","image_file":null,"html":"","related_lots":[],"categories":[]},{"name":"Subway (South Main)","id":"446","abbreviation":null,"address":"348 South Main Street","lat":"41.0764396212","lng":"-81.5225028992","image_file":"","html":"","related_lots":[],"categories":[]},{"name":"Giant Eagle (Waterloo)","id":"450","abbreviation":null,"address":"484 East Waterloo Road","lat":"41.027773","lng":"-81.509766","image_file":"","html":"","related_lots":[],"categories":[]},{"name":"Giant Eagle Market District","id":"454","abbreviation":null,"address":"2683 State Road","lat":"41.14655539163724","lng":"-81.5069139003989","image_file":null,"html":"","related_lots":[],"categories":[]},{"name":"Chima Family Center","id":"538","abbreviation":"CFC","address":"27 Forge Street","lat":"41.08036206660106","lng":"-81.50693535808023","image_file":null,"html":"","related_lots":[],"categories":[]},{"name":"Eat n' Park (Howe Ave)","id":"466","abbreviation":null,"address":"200 Howe Avenue","lat":"41.11886061904796","lng":"-81.48385815840527","image_file":null,"html":"","related_lots":[],"categories":[]},{"name":"Giant Eagle (Howe Ave)","id":"470","abbreviation":null,"address":"230 Howe Avenue","lat":"41.117435948334815","lng":"-81.48296185054016","image_file":null,"html":"","related_lots":[],"categories":[]},{"name":"Exchange Street Complex - Dining","id":"474","abbreviation":null,"address":"180 E. Exchange","lat":"41.07405773345517","lng":"-81.51629090312599","image_file":null,"html":"","related_lots":[],"categories":[]},{"name":"Union Market","id":"478","abbreviation":null,"address":"303 Carroll Street","lat":"41.07559848904513","lng":"-81.51220321655268","image_file":null,"html":"","related_lots":[],"categories":[]},{"name":"Zee's Convenience Store (Quaker Square)","id":"482","abbreviation":null,"address":"Quaker Square 2nd Fl","lat":"41.08096861","lng":"-81.51452065","image_file":null,"html":"","related_lots":[],"categories":[]},{"name":"Zee's Convenience Store (Robertson)","id":"486","abbreviation":null,"address":"285 E. Buchtel Ave.","lat":"41.07820677249755","lng":"-81.51224076747894","image_file":null,"html":"","related_lots":[],"categories":[]},{"name":"Freshen's (Student Union)","id":"490","abbreviation":null,"address":"Student Union 1st Fl 303 Carroll Street","lat":"41.07561466476524","lng":"-81.5125143527984","image_file":null,"html":"","related_lots":[],"categories":[]},{"name":"Central Hower Community Center","id":"534","abbreviation":"CHCS","address":"145 S. College Street","lat":"41.07913278931008","lng":"-81.51090502742227","image_file":null,"html":"","related_lots":[],"categories":[]},{"name":"Einstein Bros Bagels","id":"502","abbreviation":null,"address":"Bierce Library","lat":"41.0756389283382","lng":"-81.51228904724121","image_file":null,"html":"<p>Located in the Union Market</p>","related_lots":[],"categories":[]},{"name":"Engineering Research Center","id":"514","abbreviation":"AERC","address":"Wolf Ledges Parkway","lat":"41.07601096865308","lng":"-81.51711702350076","image_file":"engineering-research-building-2014.jpg","html":"","related_lots":[],"categories":[]},{"name":"The Crystal Room Bistro","id":"518","abbreviation":null,"address":"360 Grant St.","lat":"41.073042675245226","lng":"-81.51687026027139","image_file":null,"html":"<p>Monday - Thursday, 11:30 a.m. to 1:30 p.m.</p>","related_lots":[],"categories":[]},{"name":"Akron Innovation Campus","id":"522","abbreviation":"AICN","address":"411 Wolf Ledges","lat":"41.07263017699879","lng":"-81.5197724104255","image_file":null,"html":"","related_lots":["47"],"categories":[]},{"name":"Arby's","id":"559","abbreviation":null,"address":"290 E Exchange St","lat":"41.07262719115049","lng":"-81.51273834722139","image_file":null,"html":"","related_lots":[],"categories":[]}]